Time, x, y, z, temperature, BMP_altitude, BMP_temperature, BMP_pressure, Humidity, MPU_acc_x, MPU_acc_y, MPU_acc_z, GYRO_x, GYRO_y, GYRO_z, MAG_x, MAG_y, MAG_z, MPX_pressure, GPS
841,0.28,0.15,0.89,2.62,294.77,28.60,98968.72,88.40,0.30,0.00,0.88,-13.54,10.30,-11.22,46.31,-64.55,62.02,31.51,
1842,0.40,0.19,0.98,2.62,294.21,28.71,98975.35,88.41,0.41,0.09,0.92,-0.12,-18.35,1.59,36.81,-64.55,56.27,31.51,GPGGA,235943.800,,,,,0,00,,,M,,M,,*7A

2841,0.47,0.20,0.92,2.62,294.20,28.73,98975.54,88.36,0.46,0.08,0.89,-1.46,1.65,-1.83,35.63,-65.74,51.68,31.47,GPGGA,235944.799,,,,,0,00,,,M,,M,,*72

3842,0.45,0.17,0.88,2.62,294.53,28.74,98971.55,88.38,0.45,0.04,0.86,-0.55,1.16,0.24,41.56,-66.94,55.13,31.47,GPGGA,235945.799,,,,,0,00,,,M,,M,,*73

4841,0.43,0.14,1.01,2.62,294.79,28.74,98968.54,88.36,0.46,0.02,1.01,-4.88,13.11,-5.55,41.56,-66.94,55.13,31.47,GPGGA,235946.799,,,,,0,00,,,M,,M,,*70

5841,0.47,-0.09,0.82,2.63,294.54,28.76,98971.49,88.37,0.50,-0.27,0.81,6.10,-6.59,2.07,66.50,-71.72,55.13,31.47,GPGGA,235947.799,,,,,0,00,,,M,,M,,*71

6841,0.47,-0.08,0.80,2.63,294.53,28.76,98971.66,88.37,0.49,-0.26,0.79,-3.05,3.05,0.37,67.69,-76.50,52.83,31.51,GPGGA,235948.799,,,,,0,00,,,M,,M,,*7E

7841,0.50,-0.05,0.80,2.63,294.51,28.77,98971.86,88.34,0.52,-0.24,0.80,-1.65,1.65,1.52,66.50,-71.72,51.68,31.51,GPGGA,235949.799,,,,,0,00,,,M,,M,,*7F

8842,0.27,-0.03,0.88,2.63,294.61,28.77,98970.71,88.38,0.29,-0.18,0.90,-11.65,-0.43,-0.12,65.31,-60.96,62.02,31.47,GPGGA,235950.800,,,,,0,00,,,M,,M,,*78

9841,0.13,-0.13,0.82,2.63,294.74,28.77,98969.14,88.36,0.15,-0.31,0.84,17.80,14.70,-1.77,81.94,-50.20,64.31,31.47,GPGGA,235951.800,,,,,0,00,,,M,,M,,*79

10842,0.19,-0.07,0.91,2.63,294.77,28.78,98968.75,88.37,0.21,-0.23,0.93,5.91,6.46,-0.24,68.87,-53.79,63.16,31.47,GPGGA,235952.800,,,,,0,00,,,M,,M,,*7A

11841,0.22,0.19,0.78,2.63,294.61,28.78,98970.72,88.40,0.25,0.04,0.75,6.04,-16.46,0.61,52.25,-52.59,66.61,31.47,GPGGA,235953.800,,,,,0,00,,,M,,M,,*7B

12841,0.04,0.14,0.91,2.63,294.59,28.78,98970.88,88.34,0.05,-0.01,0.89,3.90,-9.09,-10.24,60.56,-45.42,68.91,31.47,GPGGA,235954.800,,,,,0,00,,,M,,M,,*7C

13841,0.18,0.22,0.98,2.64,294.52,28.78,98971.74,88.36,0.17,0.11,0.99,2.56,7.56,-0.24,48.69,-50.20,68.91,31.51,GPGGA,235955.800,,,,,0,00,,,M,,M,,*7D

14841,0.21,0.29,0.95,2.64,294.42,28.78,98972.86,88.37,0.21,0.21,0.89,54.76,51.46,-48.54,35.63,-54.98,62.02,31.51,GPGGA,235957.125,,,,,0,00,,,M,,M,,*71

15842,0.14,0.19,1.06,2.64,294.52,28.79,98971.71,88.34,0.15,0.07,1.08,-51.10,-17.07,18.11,38.00,-44.23,68.91,31.51,GPGGA,235958.126,,,,,0,00,,,M,,M,,*7D

16841,0.27,0.11,1.09,2.64,294.55,28.79,98971.35,88.34,0.26,0.03,1.19,152.01,33.23,80.18,78.37,-49.01,66.61,31.47,GPGGA,235959.126,,,,,0,00,,,M,,M,,*7C

17842,-0.50,0.55,0.13,2.64,294.80,28.80,98968.38,88.33,-0.48,0.46,0.06,-69.51,-44.88,9.57,-20.19,15.54,-18.37,31.47,GPGGA,000000.126,,,,,0,00,,,M,,M,,*7D

18841,0.47,-0.26,0.82,2.64,294.54,28.81,98970.97,88.34,0.45,-0.44,0.75,54.39,68.41,-190.61,117.56,-56.18,34.45,31.47,GPGGA,000001.126,,,,,0,00,,,M,,M,,*7C

19842,0.14,-0.17,0.92,2.64,294.85,28.81,98967.88,88.33,0.18,-0.37,0.92,17.74,-23.66,5.73,95.00,-51.40,56.27,31.51,GPGGA,000002.121,,,,,0,00,,,M,,M,,*78

20842,0.05,-0.05,0.96,2.64,294.56,28.82,98971.30,88.36,0.06,-0.20,0.97,-8.84,-11.59,-8.90,93.81,-38.25,63.16,31.47,GPGGA,000003.121,,,,,0,00,,,M,,M,,*79

21841,0.05,-0.07,1.10,2.64,294.41,28.82,98973.07,88.33,0.07,-0.23,1.07,13.23,1.04,0.18,90.25,-33.47,68.91,31.47,GPGGA,000004.121,,,,,0,00,,,M,,M,,*7E

22842,0.07,0.09,0.92,2.64,294.78,28.82,98968.66,88.34,0.09,-0.07,0.93,-5.91,-6.59,-21.04,83.12,-40.64,67.76,31.47,GPGGA,000005.121,,,,,0,00,,,M,,M,,*7F

23842,0.31,0.09,0.91,2.64,294.55,28.82,98971.35,88.37,0.34,-0.06,0.91,-5.30,3.66,2.50,59.38,-60.96,60.87,31.47,GPGGA,000006.121,,,,,0,00,,,M,,M,,*7C

24842,0.27,0.08,0.96,2.64,294.77,28.82,98968.77,88.37,0.29,-0.07,0.97,-2.26,0.85,3.90,65.31,-57.38,59.72,31.47,GPGGA,000007.121,,,,,0,00,,,M,,M,,*7D

25842,0.28,0.06,0.96,2.64,294.72,28.82,98969.35,88.34,0.29,-0.07,0.95,-0.85,1.46,0.73,65.31,-58.57,63.16,31.47,GPGGA,000008.112,,,,,0,00,,,M,,M,,*72

26832,0.27,0.05,0.91,2.64,294.24,28.83,98975.02,88.37,0.29,-0.10,0.91,3.05,3.41,5.49,65.31,-59.77,60.87,31.51,GPGGA,000008.332,,,,,0,00,,,M,,M,,*72

27805,0.28,0.06,0.94,2.65,294.40,28.83,98973.17,88.37,0.31,-0.09,0.94,-0.06,2.50,0.12,67.69,-57.38,59.72,31.47,GPGGA,153201.305,,,,,0,00,,,M,,M,,*7A

28756,0.24,0.05,0.85,2.65,294.66,28.83,98970.12,88.37,0.26,-0.11,0.85,-8.41,-0.06,-3.48,71.25,-54.98,64.31,31.47,GPGGA,153202.305,,,,,0,00,,,M,,M,,*79

29732,0.39,0.10,0.94,2.65,294.59,28.83,98970.88,88.34,0.41,-0.04,0.93,-4.21,0.85,0.85,65.31,-65.74,58.57,31.47,GPGGA,153203.305,,,,,0,00,,,M,,M,,*78

30708,0.31,0.11,0.91,2.65,294.86,28.84,98967.75,88.38,0.33,-0.03,0.90,-13.41,19.57,9.21,67.69,-63.35,57.42,31.47,GPGGA,153204.305,,,,,0,00,,,M,,M,,*7F

31698,0.25,0.01,0.95,2.65,294.64,28.84,98970.33,88.33,0.28,-0.14,0.95,30.91,-27.62,-33.60,73.62,-52.59,63.16,31.47,GPGGA,153205.305,,,,,0,00,,,M,,M,,*7E

32671,0.21,0.08,0.94,2.65,294.77,28.84,98968.72,88.33,0.23,-0.07,0.94,-4.33,8.84,3.72,64.12,-51.40,64.31,31.47,GPGGA,153206.305,,,,,0,00,,,M,,M,,*7D

33655,0.30,-0.00,0.96,2.65,294.74,28.84,98969.17,88.34,0.32,-0.15,0.98,-4.02,1.95,-0.30,71.25,-59.77,60.87,31.47,GPGGA,153207.305,,,,,0,00,,,M,,M,,*7C

34634,0.27,0.01,0.94,2.65,294.76,28.84,98968.92,88.38,0.29,-0.14,0.94,-0.55,0.85,-0.55,71.25,-58.57,59.72,31.51,GPGGA,153208.305,,,,,0,00,,,M,,M,,*73

35617,0.27,0.01,0.92,2.65,294.78,28.84,98968.61,88.36,0.30,-0.14,0.93,-1.59,3.05,0.30,70.06,-59.77,60.87,31.47,GPGGA,153209.305,,,,,0,00,,,M,,M,,*72

36592,0.27,0.02,0.92,2.65,294.80,28.85,98968.49,88.34,0.29,-0.13,0.92,-0.79,3.66,-0.06,70.06,-57.38,62.02,31.47,GPGGA,153210.305,,,,,0,00,,,M,,M,,*7A

37540,0.31,-0.00,0.96,2.65,294.95,28.85,98966.61,88.36,0.33,-0.15,0.98,-3.11,4.02,0.24,72.44,-57.38,59.72,31.47,GPGGA,153211.305,,,,,0,00,,,M,,M,,*7B

38515,0.36,0.08,0.89,2.65,294.98,28.85,98966.33,88.36,0.35,-0.01,0.84,3.60,11.65,-15.98,66.50,-64.55,58.57,31.47,GPGGA,153212.300,,,,,0,00,,,M,,M,,*7D

39516,0.36,-0.14,0.88,2.65,294.99,28.85,98966.22,88.37,0.46,-0.32,0.90,10.24,3.60,-11.16,80.75,-63.35,57.42,31.47,,1,,,,,,,,,,,,,,,*1E
$GPRMC,153213.300,V,,,,,0.00,0.00,120180,
40510,0.34,-0.00,0.91,2.65,294.82,28.86,98968.10,88.36,0.37,-0.15,0.92,6.28,1.52,-7.32,72.44,-63.35,58.57,31.47,GPGGA,153214.300,,,,,0,00,,,M,,M,,*7B

41469,0.21,0.09,0.96,2.65,295.02,28.86,98965.85,88.36,0.21,-0.05,0.98,-1.65,2.44,0.12,68.87,-51.40,63.16,31.47,GPGGA,153215.300,,,,,0,00,,,M,,M,,*7A

42470,0.18,0.08,0.96,2.65,295.13,28.86,98964.57,88.37,0.21,-0.07,0.96,-2.07,2.80,0.43,67.69,-50.20,65.46,31.47,
$GPGSA,A,1,,,,,,,,,,,,,,,*1E
$GPRMC,153216.300,V,,,,,0.00,0.,,,,,0,00,,,M,,M,,
43469,0.18,0.08,0.96,2.65,294.92,28.86,98967.03,88.36,0.20,-0.06,0.96,-2.26,1.52,-0.43,65.31,-53.79,66.61,31.47,*78
$GPGSA,A,1,,,,,,,,,,,,,,,*1E
$GPRMC,153217.300,V,,,,,0.00
44456,0.16,0.08,0.96,2.65,294.99,28.86,98966.22,88.37,0.18,-0.07,0.96,-3.11,3.60,1.59,70.06,-49.01,64.31,31.47,GPGGA,153218.300,,,,,0,00,,,M,,M,,*77

45401,0.14,0.08,0.96,2.65,295.03,28.86,98965.67,88.34,0.17,-0.07,0.96,-1.22,2.44,0.18,68.87,-49.01,65.46,31.47,GPGGA,153219.300,,,,,0,00,,,M,,M,,*76

46384,0.16,0.06,0.96,2.65,294.94,28.87,98967.07,88.36,0.19,-0.07,0.97,-0.98,1.83,-1.34,68.87,-46.62,67.76,31.47,GPGGA,153220.300,,,,,0,00,,,M,,M,,*7C

47384,0.18,0.08,0.96,2.65,295.09,28.86,98965.03,88.37,0.19,-0.07,0.96,-2.20,1.46,0.67,67.69,-50.20,64.31,31.47,M,,*7D
$GPGSA,A,1,,,,,,,,,,,,,,,*1E
$GPRMC,153221.300,V,,,,,000,,,,,0,00,,,M,,
48384,0.19,0.06,0.96,2.65,295.07,28.87,98965.23,88.37,0.21,-0.08,0.95,-1.34,1.52,0.18,65.31,-50.20,66.61,31.47,M,,*7E
$GPGSA,A,1,,,,,,,,,,,,,,,*1E
$GPRMC,153222.300,V,,,,,0
49375,-0.15,0.08,0.98,2.65,294.87,28.87,98967.57,88.33,-0.14,-0.08,0.94,-0.61,1.22,-0.67,68.87,-23.91,75.80,31.47,GPGGA,153223.300,,,,,0,00,,,M,,M,,*7F

50342,-0.10,0.05,0.95,2.65,294.93,28.87,98966.89,88.34,-0.07,-0.11,0.98,0.00,2.20,-2.07,72.44,-25.10,74.65,31.47,,,42*7F
$GPRMC,153224.089,V,,,,,0.00,0.00,060419,,,N*45
$GPVT,060419,,,N*4F
$GPVTG
51342,-0.01,0.10,0.99,2.65,295.01,28.87,98966.12,88.36,-0.00,-0.05,0.95,-2.99,-18.54,0.98,68.87,-33.47,73.50,31.47,,0.00,T,,M,0.00,N,0.00,K,N*32
$GPGGA,153226.309,,,,,0,00,,,M,,,,0.00,0.00,060419,,,N
52342,-0.01,0.05,0.91,2.65,294.91,28.87,98966.72,88.36,0.03,-0.10,0.95,-3.66,-0.61,-0.61,71.25,-39.45,70.05,31.47,GPGGA,153227.309,,,,0419,,,N*4D

53342,0.05,0.17,0.98,2.65,294.82,28.88,98968.22,88.36,0.07,0.02,0.96,35.55,2.56,-38.41,65.31,-41.84,72.35,31.47,GPGGA,153228.309,,,,,0,00,,,M,,M,,,,36,26,,,40*75

54342,0.08,0.18,0.99,2.65,294.92,28.87,98966.97,88.37,0.10,0.09,1.00,-2.68,6.52,-0.43,48.69,-40.64,68.91,31.47,V,2,2,07,03,,,42,29,,,36,31,,,41*72
$GPRMC,153228.309,V,,,,,0.19,,,N*43
$GPVTG,0.
55343,0.10,0.08,0.98,2.65,294.96,28.88,98965.81,88.34,0.11,-0.06,0.97,0.49,4.88,-2.01,68.87,-41.84,68.91,31.47,GPGGA,153230.093,,,,,0,06,,,M,,M,,19,,,N*43

56342,0.05,0.06,0.96,2.65,294.94,28.88,98966.77,88.34,0.08,-0.08,0.96,-0.55,1.65,-0.30,68.87,-41.84,73.50,31.47,$GPGGA,153231.093,4203.5457,N,08508.5329,W,1,06,1.49,272.3,M,-3
57342,0.08,0.08,0.95,2.65,295.14,28.88,98964.45,88.36,0.11,-0.07,0.96,1.71,-3.54,-0.85,70.06,-43.03,71.20,31.47,
58342,0.08,0.08,0.95,2.65,294.89,28.88,98967.30,88.33,0.11,-0.07,0.95,0.06,2.13,-0.12,66.50,-45.42,72.35,31.47,$GPGGA,153233.000,4203.5457,N,08508.5326,W,1,06,1.49,271.1,M,-3
59342,0.10,0.06,0.96,2.65,294.80,28.88,98968.03,88.36,0.11,-0.07,0.98,-2.07,0.79,-0.43,62.94,-45.42,70.05,31.47,GPGGA,153234.000,4203.5460,N,08508.5327,W,1,06,1.49,270.9,M,-3,0.70,K,A*38

60343,0.10,0.06,0.95,2.65,294.50,28.89,98972.00,88.33,0.12,-0.07,0.95,-0.55,0.55,-0.24,66.50,-43.03,68.91,31.47,$GPGGA,153235.000,4203.5458,N,08508.5326,W,1,06,1.49,271.3,M,-3
61342,0.11,0.08,0.96,2.65,294.93,28.89,98966.86,88.34,0.14,-0.06,0.96,-1.22,2.38,-0.91,65.31,-46.62,67.76,31.47,$GPGGA,153236.000,4203.5459,N,08508.5327,W,1,06,1.49,271.0,M,-3
62343,0.11,0.08,0.98,2.65,295.13,28.88,98964.50,88.37,0.13,-0.06,0.98,-0.98,2.56,-0.61,66.50,-44.23,68.91,31.47,$GPGGA,153237.000,4203.5459,N,08508.5328,W,1,06,1.49,270.5,M,-3
63342,0.10,0.09,0.96,2.65,295.10,28.89,98965.27,88.33,0.12,-0.06,0.97,-1.89,2.13,0.67,65.31,-44.23,68.91,31.47,$GPGGA,153238.000,4203.5460,N,08508.5328,W,1,06,1.49,269.7,M,-3
64343,0.10,0.08,0.95,2.65,295.07,28.89,98965.27,88.34,0.11,-0.07,0.96,-3.05,3.66,0.24,65.31,-43.03,67.76,31.47,$GPGGA,153239.000,4203.5461,N,08508.5330,W,1,06,1.49,269.1,M,-3PVTG,230.68,T,,M,0.03,
65343,0.10,0.08,0.96,2.65,294.73,28.89,98969.25,88.36,0.12,-0.06,0.97,-3.05,2.56,0.30,65.31,-44.23,67.76,31.47,N,0.06,K,A*37
$GPGGA,153240.000,4203.5461,N,08508.5331,W,1,06,
66342,0.10,0.08,0.96,2.65,295.07,28.89,98965.27,88.37,0.12,-0.06,0.96,-1.83,2.87,-0.30,65.31,-43.03,70.05,31.47,$GPGGA,153241.000,4203.5462,N,08508.5332,W,1,06,1.49,268.4,M,-3
67343,0.10,0.09,0.99,2.65,294.87,28.90,98967.57,88.36,0.13,-0.05,0.98,-0.61,2.44,-0.91,62.94,-44.23,67.76,31.47,$GPGGA,153242.000,4203.5463,N,08508.5333,W,1,06,1.49,267.5,M,-3
68342,0.10,0.09,0.98,2.66,294.84,28.90,98968.00,88.33,0.10,-0.04,0.98,-4.57,2.20,1.04,62.94,-41.84,70.05,31.47,$GPGGA,153243.000,4203.5463,N,08508.5334,W,1,06,1.49,266.7,M,-3
69342,0.08,0.09,0.96,2.66,294.99,28.90,98965.76,88.33,0.10,-0.05,0.96,-1.52,1.83,0.30,64.12,-45.42,70.05,31.47,$GPGGA,153244.000,4203.5462,N,08508.5334,W,1,06,1.49,266.7,M,-3,T,,M,0.03,N,0.06,K,A*
70343,0.10,0.08,0.98,2.66,294.91,28.90,98967.05,88.37,0.13,-0.05,0.98,-2.32,2.32,-0.49,62.94,-45.42,70.05,31.47,3D
$GPGGA,153245.000,4203.5460,N,08508.5333,W,1,06,1.49,267.0,
71343,0.10,0.09,0.96,2.66,294.91,28.90,98967.13,88.36,0.11,-0.06,0.96,-1.59,2.62,-0.98,64.12,-44.23,70.05,31.47,$GPGGA,153246.000,4203.5456,N,08508.5331,W,1,06,1.49,267.9,M,-3
72343,0.10,0.08,0.98,2.66,294.78,28.90,98968.70,88.37,0.11,-0.05,0.98,-1.22,0.98,-1.28,64.12,-44.23,68.91,31.47,$GPGGA,153247.000,4203.5454,N,08508.5331,W,1,06,1.55,268.3,M,-3
73342,0.08,0.09,0.98,2.66,294.81,28.91,98968.30,88.34,0.10,-0.05,0.97,-1.83,3.17,-0.12,62.94,-41.84,70.05,31.47,$GPGGA,153248.000,4203.5453,N,08508.5329,W,1,06,1.49,268.7,M,-3
74343,0.04,0.02,0.70,2.66,294.93,28.91,98966.86,88.33,0.02,-0.10,0.75,-20.55,-57.80,22.38,65.31,-45.42,67.76,31.47,GPGGA,153249.000,4203.5451,N,08508.5329,W,1,07,1.34,268.7,M,-37

75342,0.39,0.56,0.80,2.66,294.84,28.91,98967.94,88.34,0.40,0.53,0.77,-10.79,12.99,-10.06,20.19,-68.13,43.64,31.47,0.02,N,0.05,K,A*39
$GPGGA,153250.000,4203.5449,N,08508.5329,W,
76343,0.45,0.15,1.02,2.66,294.75,28.91,98968.99,88.36,0.47,0.06,0.98,-26.22,-26.40,18.48,48.69,-56.18,63.16,31.47,$GPGGA,153251.000,4203.5447,N,08508.5327,W,1,07,1.34,269.2,M,-3
77343,0.08,0.19,0.98,2.66,294.27,28.92,98974.66,88.33,0.10,0.07,0.98,-1.34,2.26,-0.30,53.44,-45.42,68.91,31.47,$GPGGA,153252.000,4203.5445,N,08508.5327,W,1,07,1.34,269.0,M,-3
78343,0.08,0.19,0.98,2.66,294.37,28.92,98973.47,88.34,0.11,0.07,0.97,-1.59,2.26,-0.18,53.44,-43.03,68.91,31.47,$GPGGA,153253.000,4203.5444,N,08508.5326,W,1,07,1.34,269.0,M,-3
79343,0.08,0.19,0.99,2.66,294.21,28.92,98975.76,88.37,0.10,0.08,0.98,-1.52,2.38,-0.24,54.63,-44.23,68.91,31.47,$GPGGA,153254.000,4203.5444,N,08508.5326,W,1,07,1.34,268.8,M,-3G,9.44,T,,M,0.04,N,0.0
80343,0.08,0.19,0.99,2.66,294.33,28.92,98973.91,88.37,0.10,0.07,0.98,-1.59,2.32,-0.18,52.25,-44.23,68.91,31.47,7,K,A*37
$GPGGA,153255.000,4203.5445,N,08508.5326,W,1,07,1.34,
81343,0.10,0.19,0.98,2.66,294.12,28.92,98976.41,88.34,0.11,0.07,0.97,-1.65,2.32,-0.30,49.88,-45.42,71.20,31.47,$GPGGA,153256.000,4203.5445,N,08508.5327,W,1,07,1.34,268.5,M,-3
82343,0.08,0.19,0.98,2.66,294.09,28.93,98976.82,88.37,0.11,0.07,0.98,-1.65,2.26,-0.24,49.88,-46.62,72.35,31.47,$GPGGA,153257.000,4203.5446,N,08508.5327,W,1,07,1.34,268.4,M,-3
83343,0.10,0.19,0.98,2.66,294.16,28.93,98975.92,88.36,0.10,0.07,0.97,-1.46,2.32,-0.18,54.63,-46.62,67.76,31.47,$GPGGA,153258.000,4203.5446,N,08508.5327,W,1,07,1.34,268.3,M,-3
84343,0.08,0.19,0.98,2.66,293.96,28.94,98978.39,88.33,0.10,0.07,0.97,-1.40,2.07,-0.18,51.06,-44.23,67.76,31.47,GPGGA,153259.000,4203.5447,N,08508.5328,W,1,07,1.34,268.1,M,-3*77

85343,0.08,0.19,0.98,2.66,293.98,28.95,98978.13,88.33,0.10,0.07,0.97,-1.71,2.13,-0.18,52.25,-45.42,71.20,31.47,,,M,0.02,N,0.03,K,A*38
$GPGGA,153300.000,4203.5448,N,08508.532
86343,0.08,0.19,0.98,2.66,294.07,28.95,98977.00,88.33,0.10,0.08,0.97,-1.59,2.50,0.06,51.06,-43.03,68.91,31.47,$GPGGA,153301.000,4203.5448,N,08508.5328,W,1,08,1.01,268.1,M,-3
87344,0.08,0.19,0.98,2.66,294.16,28.95,98975.92,88.33,0.11,0.07,0.98,-1.40,2.07,-0.24,53.44,-41.84,71.20,31.47,$GPGGA,153302.000,4203.5447,N,08508.5327,W,1,08,1.01,268.2,M,-3
88343,0.08,0.19,0.98,2.66,294.34,28.95,98973.79,88.37,0.10,0.08,0.97,-1.71,2.07,-0.18,53.44,-41.84,70.05,31.47,$GPGGA,153303.000,4203.5447,N,08508.5327,W,1,08,1.01,268.3,M,-3
89342,0.08,0.19,0.98,2.67,294.33,28.95,98975.88,88.37,0.11,0.07,0.96,-1.40,2.26,-0.18,51.06,-45.42,71.20,31.47,GPGGA,153304.000,4203.5446,N,08508.5327,W,1,08,1.01,268.4,M,-3.68,060419,,,A*79

90343,0.08,0.19,0.98,2.67,294.22,28.95,98977.64,88.37,0.10,0.08,0.97,-1.65,2.26,-0.30,51.06,-43.03,68.91,31.47,VTG,123.68,T,,M,0.01,N,0.03,K,A*31
$GPGGA,153305.000,4203.5446
91343,0.10,0.19,0.98,2.67,293.97,28.96,98978.27,88.33,0.10,0.08,0.97,-1.46,2.07,-0.12,53.44,-44.23,68.91,31.47,$GPGGA,153306.000,4203.5446,N,08508.5327,W,1,08,1.02,268.4,M,-3
92344,0.10,0.19,0.98,2.67,294.17,28.96,98975.85,88.33,0.10,0.08,0.97,-1.59,1.83,-0.30,51.06,-43.03,68.91,31.47,$GPGGA,153307.000,4203.5446,N,08508.5327,W,1,08,1.02,268.4,M,-3
93343,0.08,0.19,0.98,2.67,294.08,28.96,98976.91,88.37,0.10,0.08,0.97,-1.52,2.26,-0.18,53.44,-45.42,68.91,31.47,$GPGGA,153308.000,4203.5446,N,08508.5327,W,1,08,1.01,268.4,M,-3
94344,0.08,0.19,0.98,2.67,294.01,28.97,98977.75,88.33,0.10,0.08,0.96,-1.46,2.26,-0.18,51.06,-45.42,72.35,31.47,$GPGGA,153309.000,4203.5447,N,08508.5327,W,1,08,1.01,268.4,M,-3GPVTG,252.08,T,,M,0.01
95343,0.08,0.19,0.98,2.67,294.05,28.97,98977.27,88.34,0.11,0.07,0.97,-1.46,2.38,-0.06,52.25,-45.42,67.76,31.47,,N,0.02,K,A*33
$GPGGA,153310.000,4203.5447,N,08508.5327,W,1,08
96344,0.08,0.19,0.99,2.67,293.91,28.97,98978.92,88.34,0.11,0.08,0.97,-1.65,2.20,-0.12,51.06,-44.23,71.20,31.47,$GPGGA,153311.000,4203.5447,N,08508.5327,W,1,08,1.02,268.4,M,-3
97344,0.08,0.19,0.98,2.67,293.95,28.97,98978.41,88.33,0.10,0.08,0.97,-1.71,2.13,-0.37,54.63,-44.23,71.20,31.47,$GPGGA,153312.000,4203.5446,N,08508.5327,W,1,08,1.01,268.4,M,-3
98343,0.08,0.19,0.99,2.67,294.00,28.98,98977.85,88.33,0.10,0.08,0.97,-1.46,2.26,-0.12,51.06,-41.84,68.91,31.47,$GPGGA,153313.000,4203.5447,N,08508.5327,W,1,08,1.01,268.4,M,-3
99344,0.08,0.19,0.98,2.67,294.10,28.98,98979.38,88.33,0.10,0.08,0.97,-1.71,2.07,-0.30,51.06,-45.42,70.05,31.47,GPGGA,153314.000,4203.5447,N,08508.5327,W,1,08,1.02,268.4,M,-3,,A*49

100343,0.08,0.19,0.98,2.67,294.14,28.98,98976.28,88.33,0.10,0.08,0.97,-1.59,2.26,-0.06,52.25,-44.23,70.05,31.47,,,M,0.01,N,0.01,K,A*03
$GPGGA,153315.000,4203.5447,N,08508.532
101344,0.08,0.19,0.98,2.67,294.03,28.99,98977.46,88.36,0.10,0.08,0.98,-1.71,2.44,-0.18,52.25,-41.84,71.20,31.47,$GPGGA,153316.000,4203.5447,N,08508.5327,W,1,07,1.07,268.4,M,-3
102343,0.08,0.19,0.98,2.68,293.99,28.99,98977.94,88.34,0.10,0.08,0.98,-1.59,2.26,0.00,51.06,-47.81,68.91,31.47,$GPGGA,153317.000,4203.5447,N,08508.5327,W,1,08,1.02,268.4,M,-3
103344,0.08,0.19,0.99,2.68,294.01,28.99,98977.78,88.37,0.10,0.08,0.97,-1.59,2.26,-0.12,53.44,-45.42,72.35,31.47,$GPGGA,153318.000,4203.5447,N,08508.5327,W,1,08,1.02,268.4,M,-3
104343,0.08,0.19,0.98,2.68,294.08,28.99,98976.95,88.33,0.10,0.08,0.97,-1.59,2.32,-0.30,49.88,-44.23,68.91,31.47,GPGGA,153319.000,4203.5447,N,08508.5327,W,1,08,1.02,268.4,M,-361,060419,,,A*7C

105344,0.08,0.19,0.98,2.68,293.89,28.99,98979.20,88.36,0.10,0.08,0.98,-1.46,2.20,-0.37,51.06,-45.42,70.05,31.47,TG,0.61,T,,M,0.00,N,0.01,K,A*3B
$GPGGA,153320.000,4203.5447,N,
106344,0.08,0.19,0.98,2.68,294.06,28.99,98977.11,88.36,0.10,0.08,0.97,-1.52,2.13,0.00,49.88,-41.84,68.91,31.47,$GPGGA,153321.000,4203.5447,N,08508.5327,W,1,08,1.02,268.4,M,-3
107343,0.08,0.19,0.98,2.68,294.05,29.00,98977.32,88.36,0.10,0.08,0.97,-1.46,2.32,-0.06,49.88,-44.23,70.05,31.47,$GPGGA,153322.000,4203.5447,N,08508.5327,W,1,08,1.02,268.4,M,-3
108344,0.08,0.19,0.98,2.68,294.09,29.00,98976.88,88.33,0.10,0.08,0.97,-1.52,2.13,-0.30,51.06,-44.23,70.05,31.47,$GPGGA,153323.000,4203.5447,N,08508.5327,W,1,08,1.02,268.4,M,-3
109343,0.08,0.19,0.98,2.68,293.90,29.00,98975.39,88.31,0.10,0.08,0.97,-1.40,2.32,-0.24,53.44,-44.23,68.91,31.47,GPGGA,153324.000,4203.5447,N,08508.5327,W,1,08,1.02,268.4,M,-39,,,A*7D

110344,0.08,0.19,0.98,2.68,294.12,29.01,98976.49,88.34,0.10,0.08,0.98,-1.59,2.44,0.06,54.63,-44.23,71.20,31.47,8,T,,M,0.01,N,0.02,K,A*37
$GPGGA,153325.000,4203.5447,N,08508.
111344,0.08,0.19,0.98,2.68,294.12,29.01,98976.50,88.33,0.10,0.08,0.98,-1.52,2.32,0.00,49.88,-43.03,68.91,31.47,$GPGGA,153326.000,4203.5447,N,08508.5327,W,1,08,1.02,268.4,M,-3
112344,0.08,0.19,0.98,2.68,293.93,29.01,98978.75,88.31,0.10,0.08,0.98,-1.59,2.50,-0.06,49.88,-44.23,71.20,31.47,$GPGGA,153327.000,4203.5447,N,08508.5327,W,1,08,1.02,268.4,M,-3
113344,0.08,0.19,0.98,2.68,294.03,29.02,98977.54,88.33,0.10,0.08,0.98,-1.34,2.07,-0.06,52.25,-41.84,68.91,31.47,$GPGGA,153328.000,4203.5447,N,08508.5327,W,1,08,1.02,268.4,M,-3
114344,0.08,0.19,0.98,2.68,294.03,29.02,98977.52,88.31,0.10,0.08,0.98,-1.77,2.07,0.00,51.06,-44.23,68.91,31.47,$GPGGA,153329.000,4203.5447,N,08508.5327,W,1,08,1.02,268.4,M,-3,313.25,060419,,,A*7F

115344,0.08,0.19,0.98,2.68,294.16,29.02,98975.99,88.33,0.10,0.08,0.97,-1.40,2.38,-0.12,53.44,-41.84,71.20,31.47,
$GPVTG,313.25,T,,M,0.01,N,0.01,K,A*3B
$GPGGA,153330.000,4203.
116344,0.08,0.19,0.98,2.68,294.05,29.03,98977.32,88.31,0.10,0.08,0.98,-1.59,2.26,-0.18,51.06,-43.03,68.91,31.47,$GPGGA,153331.000,4203.5447,N,08508.5327,W,1,08,1.02,268.4,M,-3
117344,0.08,0.19,0.98,2.69,293.79,29.03,98980.30,88.33,0.10,0.08,0.97,-1.71,2.44,-0.06,49.88,-39.45,68.91,31.47,$GPGGA,153332.000,4203.5447,N,08508.5327,W,1,08,1.02,268.4,M,-3
118344,0.08,0.19,0.98,2.69,293.89,29.03,98979.17,88.31,0.10,0.08,0.97,-1.46,2.32,0.06,53.44,-44.23,70.05,31.47,$GPGGA,153333.000,4203.5447,N,08508.5327,W,1,08,1.02,268.4,M,-3
119344,0.08,0.19,0.98,2.69,294.29,29.03,98978.41,88.36,0.10,0.08,0.97,-1.65,2.26,0.06,52.25,-46.62,71.20,31.47,$GPGGA,153334.000,4203.5447,N,08508.5327,W,1,08,1.02,268.4,M,-3,0.00,273.50,060419,,,
120344,0.08,0.19,0.98,2.69,293.96,29.04,98978.30,88.33,0.10,0.08,0.97,-1.16,1.95,-0.24,51.06,-44.23,71.20,31.47,A*77
$GPVTG,273.50,T,,M,0.00,N,0.01,K,A*3F
$GPGGA,153335.000,
121345,0.08,0.19,0.98,2.69,293.99,29.04,98977.94,88.31,0.10,0.08,0.97,-1.65,2.26,-0.24,52.25,-43.03,70.05,31.47,$GPGGA,153336.000,4203.5447,N,08508.5327,W,1,08,1.02,268.4,M,-3
122344,0.08,0.19,0.98,2.69,293.80,29.04,98980.20,88.29,0.10,0.08,0.97,-1.40,2.01,-0.30,52.25,-44.23,68.91,31.47,$GPGGA,153337.000,4203.5447,N,08508.5327,W,1,08,1.02,268.4,M,-3
123344,0.08,0.19,0.98,2.69,294.04,29.05,98977.42,88.30,0.10,0.08,0.97,-1.52,2.13,-0.18,51.06,-44.23,70.05,31.47,$GPGGA,153338.000,4203.5447,N,08508.5327,W,1,08,1.02,268.4,M,-3
124345,0.08,0.19,0.98,2.69,293.97,29.05,98978.16,88.29,0.09,0.08,0.97,-1.65,2.20,-0.30,49.88,-43.03,68.91,31.47,GPGGA,153339.000,4203.5447,N,08508.5327,W,1,08,1.02,268.4,M,-3,,,A*7D

125344,0.08,0.19,0.98,2.69,293.91,29.05,98978.92,88.33,0.10,0.08,0.97,-1.22,2.07,-0.06,51.06,-44.23,67.76,31.47,,T,,M,0.02,N,0.04,K,A*3D
$GPGGA,153340.000,4203.5447,N,08508.5
126345,0.08,0.19,0.98,2.69,293.92,29.05,98978.85,88.33,0.10,0.08,0.97,-1.59,2.07,-0.18,52.25,-43.03,68.91,31.47,$GPGGA,153341.000,4203.5447,N,08508.5327,W,1,08,1.02,268.4,M,-3
127344,0.08,0.19,0.98,2.69,293.83,29.06,98979.92,88.30,0.10,0.08,0.97,-1.52,2.07,-0.06,52.25,-44.23,73.50,31.47,$GPGGA,153342.000,4203.5447,N,08508.5327,W,1,08,1.02,268.4,M,-3
128345,0.08,0.19,0.98,2.69,293.75,29.06,98980.78,88.30,0.10,0.07,0.97,-1.46,2.07,-0.24,51.06,-45.42,70.05,31.47,$GPGGA,153343.000,4203.5447,N,08508.5327,W,1,08,1.02,268.4,M,-3
129344,0.08,0.19,0.98,2.69,294.05,29.06,98977.61,88.29,0.10,0.08,0.97,-1.59,2.13,-0.18,52.25,-43.03,71.20,31.47,GPGGA,153344.000,4203.5447,N,08508.5327,W,1,08,1.02,268.4,M,-3.88,060419,,,A*74

130344,0.08,0.19,0.98,2.69,294.04,29.06,98977.41,88.31,0.10,0.08,0.97,-1.52,2.26,-0.24,51.06,-43.03,71.20,31.47,VTG,171.88,T,,M,0.00,N,0.01,K,A*3B
$GPGGA,153345.000,4203.5447
131345,0.08,0.19,0.98,2.69,293.86,29.07,98979.50,88.33,0.10,0.08,0.96,-1.28,2.13,-0.12,51.06,-44.23,68.91,31.47,$GPGGA,153346.000,4203.5447,N,08508.5327,W,1,08,1.02,268.4,M,-3
132344,0.08,0.19,0.98,2.69,294.01,29.07,98977.70,88.30,0.10,0.08,0.97,-1.46,2.20,-0.24,48.69,-46.62,68.91,31.47,$GPGGA,153347.000,4203.5447,N,08508.5327,W,1,08,1.02,268.4,M,-3
133345,0.08,0.19,0.98,2.69,294.05,29.07,98977.30,88.31,0.10,0.08,0.98,-1.34,2.20,0.00,51.06,-43.03,68.91,31.47,$GPGGA,153348.000,4203.5447,N,08508.5327,W,1,08,1.02,268.4,M,-3
134345,0.08,0.19,0.98,2.69,293.92,29.08,98978.80,88.30,0.10,0.08,0.96,-1.65,2.26,0.12,51.06,-45.42,68.91,31.47,GPGGA,153349.000,4203.5447,N,08508.5327,W,1,08,1.02,268.4,M,-3,,,A*76

135345,0.08,0.19,0.98,2.70,293.96,29.08,98978.36,88.33,0.10,0.08,0.97,-1.46,2.38,0.00,52.25,-43.03,70.05,31.47,47,T,,M,0.01,N,0.03,K,A*36
$GPGGA,153350.000,4203.5447,N,08508
136345,0.08,0.19,0.98,2.70,293.85,29.08,98979.61,88.29,0.10,0.08,0.97,-1.71,2.32,0.00,51.06,-43.03,72.35,31.47,$GPGGA,153351.000,4203.5447,N,08508.5327,W,1,08,1.02,268.4,M,-3
137345,0.08,0.19,0.98,2.70,293.85,29.09,98979.62,88.33,0.10,0.08,0.98,-1.65,2.26,-0.06,51.06,-43.03,70.05,31.47,$GPGGA,153352.000,4203.5447,N,08508.5327,W,1,08,1.02,268.4,M,-3
138345,0.08,0.19,0.98,2.70,293.92,29.09,98978.78,88.31,0.10,0.08,0.97,-1.52,2.26,0.18,53.44,-41.84,70.05,31.47,$GPGGA,153353.000,4203.5447,N,08508.5327,W,1,08,1.02,268.4,M,-3
139345,0.08,0.19,0.99,2.70,293.99,29.09,98977.97,88.30,0.10,0.08,0.96,-1.65,2.56,-0.12,49.88,-41.84,70.05,31.47,GPGGA,153354.000,4203.5447,N,08508.5327,W,1,08,1.02,268.4,M,-33,060419,,,A*77

140345,0.08,0.19,0.98,2.70,293.95,29.10,98978.50,88.31,0.10,0.08,0.97,-1.16,2.44,-0.18,53.44,-41.84,71.20,31.47,G,243.33,T,,M,0.00,N,0.01,K,A*39
$GPGGA,153355.000,4203.5447,N
141345,0.08,0.19,0.98,2.70,293.77,29.10,98979.83,88.30,0.11,0.08,0.98,-1.65,2.26,-0.24,49.88,-44.23,70.05,31.47,$GPGGA,153356.000,4203.5447,N,08508.5327,W,1,08,1.02,268.4,M,-3
142345,0.08,0.19,0.98,2.70,293.81,29.10,98980.08,88.27,0.10,0.08,0.97,-1.52,2.07,0.00,52.25,-43.03,70.05,31.47,$GPGGA,153357.000,4203.5447,N,08508.5327,W,1,08,1.02,268.4,M,-3
143345,0.08,0.19,0.98,2.70,293.85,29.11,98979.64,88.31,0.10,0.08,0.97,-1.34,2.20,-0.12,51.06,-43.03,70.05,31.47,$GPGGA,153358.000,4203.5447,N,08508.5327,W,1,08,1.02,268.4,M,-3
144346,0.08,0.19,0.98,2.70,293.86,29.11,98979.57,88.29,0.10,0.08,0.97,-1.52,2.13,-0.12,52.25,-44.23,70.05,31.47,GPGGA,153359.000,4203.5447,N,08508.5327,W,1,08,1.02,268.4,M,-3A*7E

145345,0.08,0.19,0.98,2.70,293.83,29.11,98979.85,88.33,0.10,0.08,0.98,-1.52,2.32,-0.18,51.06,-45.42,67.76,31.47,,M,0.01,N,0.01,K,A*3D
$GPGGA,153400.000,4203.5447,N,08508.5327
146345,0.08,0.19,0.98,2.70,293.69,29.12,98981.50,88.29,0.10,0.08,0.98,-1.65,2.50,-0.24,51.06,-41.84,70.05,31.47,$GPGGA,153401.000,4203.5447,N,08508.5327,W,1,08,1.02,268.4,M,-3
147345,0.08,0.19,0.98,2.70,293.85,29.12,98979.66,88.29,0.10,0.08,0.98,-1.40,2.26,-0.55,52.25,-43.03,68.91,31.47,$GPGGA,153402.000,4203.5447,N,08508.5327,W,1,08,1.02,268.4,M,-3
148345,0.08,0.19,0.98,2.70,293.99,29.12,98978.02,88.30,0.10,0.08,0.97,-1.34,2.20,-0.06,51.06,-45.42,71.20,31.47,$GPGGA,153403.000,4203.5447,N,08508.5327,W,1,08,1.02,268.4,M,-3
149346,0.08,0.19,0.98,2.70,293.77,29.13,98980.64,88.33,0.10,0.08,0.97,-1.52,2.13,-0.18,51.06,-43.03,71.20,31.47,$GPGGA,153404.000,4203.5447,N,08508.5327,W,1,08,1.01,268.4,M,-327,W,0.00,298.01,06041
150345,0.08,0.19,0.98,2.70,293.89,29.13,98979.20,88.31,0.10,0.08,0.97,-1.52,2.20,-0.24,51.06,-43.03,67.76,31.47,9,,,A*72
$GPVTG,298.01,T,,M,0.00,N,0.00,K,A*3F
$GPGGA,153405.
151346,0.08,0.19,0.98,2.70,293.79,29.13,98980.28,88.27,0.10,0.08,0.97,-1.52,2.07,-0.12,49.88,-44.23,68.91,31.47,$GPGGA,153406.000,4203.5447,N,08508.5327,W,1,08,1.02,268.4,M,-3
152345,0.08,0.19,0.98,2.71,293.89,29.13,98979.16,88.27,0.10,0.08,0.97,-1.59,2.20,-0.30,54.63,-44.23,71.20,31.51,$GPGGA,153407.000,4203.5447,N,08508.5327,W,1,08,1.02,268.4,M,-3
153346,0.08,0.19,0.98,2.71,293.91,29.14,98978.89,88.27,0.10,0.08,0.98,-1.59,2.44,-0.49,51.06,-44.23,68.91,31.47,$GPGGA,153408.000,4203.5447,N,08508.5327,W,1,08,1.02,268.4,M,-3
154345,0.08,0.19,0.98,2.71,293.87,29.14,98979.89,88.31,0.10,0.08,0.97,-1.65,2.07,-0.24,52.25,-43.03,70.05,31.47,$GPGGA,153409.000,4203.5447,N,08508.5327,W,1,08,1.02,268.4,M,-301,124.30,060419,,,A
155345,0.08,0.19,0.98,2.71,294.03,29.15,98977.53,88.30,0.10,0.08,0.97,-1.65,2.20,0.00,51.06,-44.23,68.91,31.47,*78
$GPVTG,124.30,T,,M,0.01,N,0.02,K,A*3A
$GPGGA,153410.000,4
156346,0.08,0.19,0.98,2.71,293.82,29.15,98980.03,88.31,0.10,0.08,0.97,-1.46,2.01,-0.30,52.25,-43.03,68.91,31.47,$GPGGA,153411.000,4203.5447,N,08508.5327,W,1,08,1.01,268.4,M,-3
157345,0.08,0.19,0.98,2.71,293.89,29.15,98979.14,88.30,0.10,0.08,0.97,-1.71,2.13,-0.18,51.06,-40.64,71.20,31.47,$GPGGA,153412.000,4203.5447,N,08508.5327,W,1,08,1.01,268.4,M,-3
158346,0.08,0.19,0.98,2.71,293.88,29.16,98979.32,88.29,0.10,0.08,0.97,-1.22,2.38,-0.06,52.25,-43.03,67.76,31.51,$GPGGA,153413.000,4203.5447,N,08508.5327,W,1,08,1.01,268.4,M,-3
159345,0.08,0.19,0.98,2.71,293.94,29.16,98978.60,88.30,0.10,0.08,0.97,-1.77,2.38,-0.24,51.06,-43.03,67.76,31.47,$GPGGA,153414.000,4203.5447,N,08508.5327,W,1,08,1.01,268.4,M,-37,W,0.01,267.31,060419
160346,0.08,0.19,0.98,2.71,294.01,29.17,98977.75,88.30,0.10,0.08,0.98,-1.52,2.26,-0.06,49.88,-41.84,71.20,31.47,,,,A*71
$GPVTG,267.31,T,,M,0.01,N,0.01,K,A*3C
$GPGGA,153415.0
161346,0.08,0.19,0.98,2.71,293.90,29.17,98979.08,88.29,0.09,0.08,0.97,-1.52,2.32,-0.12,51.06,-43.03,70.05,31.51,$GPGGA,153416.000,4203.5447,N,08508.5327,W,1,08,1.01,268.4,M,-3
162345,0.08,0.19,0.98,2.71,293.92,29.17,98978.85,88.29,0.10,0.08,0.97,-1.71,2.26,-0.30,54.63,-43.03,70.05,31.47,$GPGGA,153417.000,4203.5447,N,08508.5327,W,1,08,1.01,268.4,M,-3
163346,0.08,0.19,0.98,2.71,294.12,29.18,98976.49,88.27,0.10,0.08,0.97,-1.65,2.38,-0.12,52.25,-41.84,70.05,31.47,$GPGGA,153418.000,4203.5447,N,08508.5327,W,1,08,1.01,268.4,M,-3
164346,0.08,0.19,0.98,2.71,293.96,29.18,98977.82,88.31,0.10,0.08,0.98,-1.65,2.07,-0.06,52.25,-43.03,70.05,31.47,$GPGGA,153419.000,4203.5447,N,08508.5327,W,1,08,1.01,268.4,M,-3,0.01,300.35,060419,,,
165346,0.08,0.19,0.98,2.71,294.11,29.18,98976.53,88.31,0.10,0.08,0.98,-1.52,2.20,-0.24,51.06,-43.03,68.91,31.47,A*78
$GPVTG,300.35,T,,M,0.01,N,0.02,K,A*3B
$GPGGA,153420.000,
166346,0.08,0.19,0.98,2.71,293.94,29.19,98978.60,88.27,0.10,0.08,0.98,-1.46,2.20,-0.18,49.88,-44.23,67.76,31.47,$GPGGA,153421.000,4203.5447,N,08508.5327,W,1,08,1.01,268.4,M,-3
167346,0.08,0.19,0.98,2.71,293.87,29.19,98979.39,88.29,0.10,0.08,0.97,-1.59,2.13,-0.12,51.06,-40.64,70.05,31.47,$GPGGA,153422.000,4203.5447,N,08508.5327,W,1,08,1.01,268.4,M,-3
168346,0.08,0.19,0.98,2.71,293.95,29.20,98978.49,88.31,0.10,0.08,0.97,-1.46,2.07,-0.30,52.25,-45.42,70.05,31.47,$GPGGA,153423.000,4203.5447,N,08508.5327,W,1,08,1.01,268.4,M,-3
169346,0.08,0.19,0.98,2.71,294.06,29.20,98977.16,88.30,0.10,0.08,0.98,-1.59,2.32,-0.30,49.88,-41.84,70.05,31.47,GPGGA,153424.000,4203.5447,N,08508.5327,W,1,08,1.01,268.4,M,-3

170346,0.08,0.19,0.98,2.71,293.87,29.20,98979.42,88.31,0.10,0.08,0.97,-1.59,2.13,-0.12,51.06,-44.23,67.76,31.47,0.01,N,0.03,K,A*30
$GPGGA,153425.000,4203.5447,N,08508.5327,W,
171345,0.08,0.19,0.98,2.71,294.00,29.21,98977.85,88.29,0.10,0.08,0.97,-1.34,2.20,-0.12,51.06,-43.03,70.05,31.47,$GPGGA,153426.000,4203.5447,N,08508.5326,W,2,08,1.00,268.4,M,-3
172346,0.08,0.19,0.98,2.71,294.15,29.21,98976.05,88.29,0.10,0.08,0.97,-1.65,2.20,-0.12,51.06,-43.03,70.05,31.47,$GPGGA,153427.000,4203.5447,N,08508.5326,W,2,08,1.00,268.5,M,-3
173346,0.08,0.19,0.98,2.71,293.79,29.21,98980.32,88.31,0.10,0.08,0.97,-1.71,2.13,-0.30,51.06,-41.84,70.05,31.47,$GPGGA,153428.000,4203.5446,N,08508.5327,W,2,08,1.00,268.6,M,-3
174347,0.08,0.19,0.98,2.71,293.85,29.22,98979.24,88.29,0.10,0.08,0.97,-1.59,2.50,-0.37,51.06,-45.42,71.20,31.47,GPGGA,153429.000,4203.5446,N,08508.5327,W,2,08,1.00,268.6,M,-30419,,,D*70

175346,0.08,0.19,0.98,2.71,294.00,29.22,98977.83,88.26,0.10,0.08,0.97,-1.52,2.13,-0.12,52.25,-43.03,70.05,31.47,9.55,T,,M,0.03,N,0.05,K,D*36
$GPGGA,153430.000,4203.5446,N,085
176346,0.08,0.19,0.98,2.71,293.90,29.23,98979.05,88.31,0.10,0.08,0.97,-1.71,2.32,0.00,51.06,-43.03,71.20,31.47,$GPGGA,153431.000,4203.5446,N,08508.5326,W,2,08,1.00,268.7,M,-3
177346,0.08,0.19,0.98,2.71,293.91,29.23,98978.89,88.26,0.10,0.08,0.98,-1.65,2.44,-0.30,49.88,-43.03,70.05,31.47,$GPGGA,153432.000,4203.5446,N,08508.5326,W,2,08,1.00,268.7,M,-3
178347,0.08,0.19,0.98,2.71,293.98,29.24,98978.06,88.26,0.10,0.08,0.97,-1.46,2.13,-0.18,49.88,-43.03,68.91,31.47,$GPGGA,153433.000,4203.5445,N,08508.5325,W,2,08,1.00,268.7,M,-3
179346,0.08,0.19,0.98,2.71,293.85,29.25,98979.64,88.41,0.10,0.08,0.98,-1.65,2.20,0.06,52.25,-44.23,71.20,31.47,GPGGA,153434.000,4203.5444,N,08508.5325,W,2,08,1.00,268.7,M,-3419,,,D*71

180346,0.14,0.05,0.87,2.71,293.93,29.25,98978.63,88.24,0.18,-0.12,0.89,-8.05,-32.32,34.82,65.31,-45.42,71.20,31.47,.40,T,,M,0.05,N,0.09,K,D*37
$GPGGA,153435.000,4203.5444,N,0850
181346,0.31,0.08,0.96,2.71,294.42,29.25,98972.89,88.26,0.34,-0.05,0.96,13.48,25.85,35.61,68.87,-66.94,57.42,31.47,$GPGGA,153436.000,4203.5445,N,08508.5325,W,2,08,1.00,268.8,M,-3
182346,0.10,0.20,0.88,2.72,294.44,29.26,98972.61,88.29,0.12,0.08,0.86,-22.13,8.17,-8.29,49.88,-49.01,70.05,31.47,$GPGGA,153437.000,4203.5444,N,08508.5326,W,2,08,1.00,268.9,M,-3
183347,0.28,0.22,0.94,2.72,294.67,29.26,98969.89,88.29,0.30,0.09,0.93,3.54,11.52,-12.56,48.69,-60.96,60.87,31.47,$GPGGA,153438.000,4203.5444,N,08508.5325,W,2,08,1.00,269.0,M,-3
184346,0.22,0.24,0.89,2.72,294.41,29.27,98973.00,88.24,0.24,0.13,0.90,-9.94,12.87,-8.48,36.81,-51.40,64.31,31.43,
185285,0.10,-0.36,0.84,2.72,295.10,29.28,98964.60,88.27,0.06,-0.45,1.02,-6.77,14.94,-28.35,98.56,-32.27,63.16,31.47,$GPGGA,153439.000,4203.5444,N,08ÁÂr’tÅ‰	#LLKMN˜S–.9,X`Á``T5jD:u1.00,269.1,M,-33.9
186287,-0.02,-0.14,0.99,2.71,294.68,29.28,98969.79,88.23,-0.06,-0.29,1.08,64.21,-7.32,-46.22,84.31,-35.86,70.05,31.47,,M,0000,0000*5B
$GPGSA,A,3,23,16,22,09,26,03,29,31,,,,,1.28,1.00,269.3,M,-33.9,M
187286,0.02,-0.01,1.15,2.71,294.96,29.31,98966.57,88.26,-0.03,-0.12,1.12,1.77,16.65,8.90,62.94,-37.05,73.50,31.47,,0000,0000*58
$GPGSA,A,3,23,16,22,09,26,03,29,31,,,,,1.28,1.001.00,269.4,M,-33.9
188282,-0.01,0.08,0.98,2.71,292.52,29.32,98997.85,88.26,0.00,-0.11,0.97,-19.57,-1.40,-15.00,42.75,-39.45,68.91,31.47,,M,0000,0000*5C
$GPGSA,A,3,23,16,22,09,26,03,29,31,,,,,1.28,1.00,0000*5A
$GPGSA
189283,0.13,0.09,0.95,2.71,294.07,29.37,98976.98,88.24,0.14,-0.05,1.02,7.13,-0.49,2.32,49.88,-41.84,68.91,31.47,,A,3,23,16,22,09,26,03,29,31,,,,,1.28,1.00,0.79*07
$GPRMC,15340000,0000*5C
$GPG
190730,0.14,0.04,0.89,2.71,295.13,29.44,98964.53,88.26,0.20,-0.10,0.96,-23.41,-26.28,-2.80,57.00,-46.62,68.91,31.47,SA,A,3,23,16,22,09,26,03,29,31,,,,,1.28,1.00,0.79*07
$GPGSV,3,
191730,0.21,0.11,0.84,2.71,295.11,29.40,98964.72,88.24,0.27,-0.01,0.83,46.71,3.05,30.12,57.00,-46.62,64.31,31.47,GPGGA,153446.000,4203.5442,N,08508.5326,W,2,08,1.00,269.6,M,-30000,0000*5C

192730,0.14,0.14,0.95,2.71,295.20,29.39,98963.74,88.26,0.17,-0.00,0.96,11.10,4.94,0.73,62.94,-50.20,67.76,31.47,$GPGGA,153447.000,4203.5442,N,08508.5325,W,2,08,1.00,269.6,M,-3
193730,0.14,0.11,0.99,2.72,295.23,29.40,98963.35,88.22,0.17,-0.00,0.98,-23.11,16.52,2.20,61.75,-51.40,66.61,31.47,$GPGGA,153448.000,4203.5441,N,08508.5325,W,2,08,1.00,269.8,M,-3
194729,0.10,0.15,0.96,2.72,295.29,29.40,98962.02,88.23,0.12,0.04,0.98,-12.99,8.05,17.99,60.56,-43.03,70.05,31.47,$GPGGA,153449.000,4203.5441,N,08508.5325,W,2,08,1.00,269.8,M,-3
195730,0.10,0.05,1.02,2.72,295.26,29.40,98962.98,88.22,0.11,-0.07,1.04,17.93,-0.18,-10.91,60.56,-44.23,68.91,31.47,$GPGGA,153450.000,4203.5441,N,08508.5325,W,2,08,1.00,269.9,M,-3
196730,0.04,0.05,0.95,2.72,295.46,29.40,98960.66,88.23,0.06,-0.09,0.96,-7.38,6.52,-1.71,62.94,-43.03,70.05,31.47,$GPGGA,153451.000,4203.5441,N,08508.5324,W,2,08,1.00,269.9,M,-3
197730,0.04,0.06,0.98,2.72,295.32,29.40,98962.22,88.22,0.06,-0.08,0.98,-1.77,1.34,-6.46,60.56,-39.45,72.35,31.47,$GPGGA,153452.000,4203.5441,N,08508.5325,W,2,08,1.00,270.0,M,-3
198730,0.02,0.06,0.98,2.72,295.20,29.41,98963.71,88.23,0.04,-0.08,0.98,-5.61,-0.30,6.52,57.00,-37.05,71.20,31.47,$GPGGA,153453.000,4203.5441,N,08508.5324,W,2,08,1.00,270.0,M,-3
199730,0.01,0.06,0.95,2.72,295.32,29.41,98962.24,88.23,0.03,-0.07,0.95,1.40,0.67,-3.41,59.38,-35.86,73.50,31.47,$GPGGA,153454.000,4203.5441,N,08508.5324,W,2,08,1.00,270.1,M,-3
200730,0.02,0.06,0.95,2.72,295.13,29.41,98964.49,88.22,0.05,-0.06,0.94,-4.63,-7.93,12.01,55.81,-37.05,72.35,31.47,$GPGGA,153455.000,4203.5441,N,08508.5323,W,2,08,1.00,270.1,M,-3
201731,0.08,-0.00,0.96,2.72,295.26,29.42,98963.33,88.26,0.11,-0.16,0.96,-22.50,-9.82,3.35,61.75,-35.86,73.50,31.47,$GPGGA,153456.000,4203.5441,N,08508.5323,W,2,08,1.00,270.2,M,-3
202730,0.02,0.08,0.96,2.72,295.32,29.43,98962.25,88.23,0.05,-0.06,0.97,23.05,-7.99,-2.38,61.75,-37.05,75.80,31.47,$GPGGA,153457.000,4203.5440,N,08508.5323,W,2,08,1.00,270.3,M,-3
203730,0.08,0.09,0.99,2.72,294.61,29.44,98970.64,88.22,0.11,-0.02,0.99,-6.71,8.72,22.44,48.69,-39.45,73.50,31.47,$GPGGA,153458.000,4203.5440,N,08508.5322,W,2,08,1.00,270.4,M,-3
204730,0.13,0.14,1.06,2.72,295.23,29.46,98963.30,88.22,0.14,0.06,1.03,-4.57,5.49,-11.52,46.31,-40.64,70.05,31.43,$GPGGA,153459.000,4203.5439,N,08508.5321,W,2,08,1.00,270.6,M,-3
205730,0.07,0.09,1.02,2.72,295.01,29.47,98965.96,88.24,0.08,-0.00,1.00,14.63,16.71,6.83,51.06,-35.86,71.20,31.47,$GPGGA,153500.000,4203.5439,N,08508.5320,W,2,08,1.00,270.7,M,-3
206731,0.02,0.20,0.99,2.72,295.25,29.47,98963.07,88.23,0.04,0.10,0.99,-2.50,1.46,3.29,41.56,-35.86,70.05,31.47,$GPGGA,153501.000,4203.5438,N,08508.5320,W,2,08,1.00,270.8,M,-3
207730,-0.02,0.26,0.94,2.72,294.99,29.48,98966.22,88.20,-0.01,0.15,0.94,5.61,10.43,-3.23,38.00,-39.45,68.91,31.47,$GPGGA,153502.000,4203.5438,N,08508.5320,W,2,08,1.00,270.9,M,-3
208731,0.01,0.14,0.98,2.72,295.09,29.48,98966.98,88.20,0.03,0.01,0.98,-3.54,5.37,-15.43,51.06,-40.64,70.05,31.47,$GPGGA,153503.000,4203.5438,N,08508.5320,W,2,08,1.00,271.0,M,-3
209730,-0.02,0.11,0.92,2.72,295.19,29.49,98963.82,88.23,0.00,-0.02,0.94,-4.76,1.65,3.84,48.69,-38.25,72.35,31.47,$GPGGA,153504.000,4203.5438,N,08508.5320,W,2,08,1.00,271.2,M,-3
210731,0.02,0.11,0.98,2.72,295.17,29.49,98964.03,88.23,0.04,-0.02,0.99,4.57,13.05,1.22,52.25,-45.42,71.20,31.43,$GPGGA,153505.000,4203.5438,N,08508.5320,W,2,08,1.00,271.2,M,-3
211731,0.07,0.14,1.03,2.72,294.83,29.50,98968.10,88.19,0.08,0.01,1.03,-6.59,-5.79,5.98,47.50,-40.64,71.20,31.43,$GPGGA,153506.000,4203.5438,N,08508.5319,W,2,08,1.00,271.2,M,-3
212730,0.02,0.13,0.98,2.72,295.11,29.51,98964.81,88.20,0.05,-0.00,0.98,-8.35,0.67,3.05,52.25,-41.84,70.05,31.47,$GPGGA,153507.000,4203.5438,N,08508.5319,W,2,08,1.00,271.2,M,-3
213731,0.04,0.10,0.98,2.72,294.62,29.52,98970.57,88.19,0.06,-0.02,0.98,0.18,3.72,-0.91,51.06,-37.05,71.20,31.47,$GPGGA,153508.000,4203.5438,N,08508.5319,W,2,08,1.00,271.2,M,-3
214730,0.04,0.11,0.98,2.72,294.87,29.54,98967.58,88.19,0.05,-0.01,0.97,-4.15,4.27,2.50,51.06,-40.64,71.20,31.47,$GPGGA,153509.000,4203.5438,N,08508.5319,W,2,08,1.00,271.2,M,-3
215731,0.01,0.10,0.98,2.72,294.23,29.55,98973.82,88.20,0.04,-0.02,0.98,-0.85,1.34,-0.67,51.06,-39.45,73.50,31.43,$GPGGA,153510.000,4203.5438,N,08508.5319,W,2,08,1.00,271.2,M,-3
216730,0.04,0.13,0.99,2.72,294.86,29.57,98967.73,88.19,0.05,-0.00,0.98,0.73,2.07,1.22,49.88,-37.05,74.65,31.43,$GPGGA,153511.000,4203.5438,N,08508.5319,W,2,08,1.00,271.2,M,-3
217731,0.04,0.13,0.98,2.72,294.88,29.57,98967.42,88.19,0.05,-0.00,0.98,-5.37,-0.06,5.85,49.88,-38.25,72.35,31.47,$GPGGA,153512.000,4203.5438,N,08508.5319,W,2,08,1.00,271.2,M,-3
218731,0.02,0.15,0.96,2.72,295.16,29.57,98964.19,88.19,0.04,0.03,0.96,-1.40,3.78,0.98,52.25,-39.45,72.35,31.51,$GPGGA,153513.000,4203.5438,N,08508.5319,W,2,08,1.00,271.2,M,-3
219730,0.04,0.15,0.99,2.72,295.32,29.57,98962.27,88.19,0.05,0.03,0.99,-0.91,0.55,-1.89,51.06,-38.25,72.35,31.47,$GPGGA,153514.000,4203.5438,N,08508.5319,W,2,08,1.00,271.2,M,-3
220731,0.08,0.14,1.02,2.72,294.96,29.58,98966.50,88.23,0.10,0.03,1.01,-7.93,-2.80,-4.57,49.88,-40.64,71.20,31.47,$GPGGA,153515.000,4203.5438,N,08508.5319,W,2,08,1.00,271.2,M,-3
221730,0.05,0.15,0.96,2.72,295.10,29.58,98964.85,88.19,0.07,0.04,0.96,-1.65,0.12,5.49,53.44,-40.64,68.91,31.47,$GPGGA,153516.000,4203.5438,N,08508.5319,W,2,08,1.00,271.2,M,-3
222731,0.05,0.15,0.98,2.72,295.07,29.59,98965.75,88.19,0.08,0.03,0.98,4.70,4.02,0.00,57.00,-43.03,70.05,31.43,$GPGGA,153517.000,4203.5438,N,08508.5319,W,2,08,1.00,271.2,M,-3
223731,0.05,0.11,0.98,2.72,295.07,29.59,98965.19,88.17,0.08,-0.01,0.99,-8.23,2.13,1.83,57.00,-39.45,71.20,31.47,$GPGGA,153518.000,4203.5438,N,08508.5319,W,2,08,1.00,271.2,M,-3
224731,0.10,0.14,0.99,2.72,295.08,29.59,98965.11,88.22,0.11,0.03,1.00,-4.45,1.40,-3.41,55.81,-43.03,71.20,31.47,$GPGGA,153519.000,4203.5438,N,08508.5319,W,2,08,1.00,271.2,M,-3
225731,0.07,0.11,0.96,2.72,295.11,29.60,98964.83,88.17,0.09,-0.02,0.96,-0.98,2.01,1.71,58.19,-41.84,71.20,31.47,$GPGGA,153520.000,4203.5438,N,08508.5319,W,2,08,1.00,271.3,M,-3
226731,0.16,0.06,1.01,2.72,295.06,29.60,98965.36,88.22,0.17,-0.07,1.00,-4.57,-8.17,-3.23,58.19,-43.03,68.91,31.47,$GPGGA,153521.000,4203.5438,N,08508.5319,W,2,08,1.00,271.3,M,-3
227731,0.27,0.02,1.01,2.72,295.00,29.61,98966.05,88.22,0.29,-0.10,1.02,-13.29,0.79,-8.66,59.38,-45.42,68.91,31.47,$GPGGA,153522.000,4203.5438,N,08508.5319,W,2,08,1.00,271.3,M,-3
228731,0.04,0.04,0.95,2.72,295.10,29.61,98964.89,88.17,0.06,-0.11,0.96,-1.28,-6.28,16.16,58.19,-44.23,71.20,31.47,$GPGGA,153523.000,4203.5438,N,08508.5319,W,2,08,1.00,271.3,M,-3
229731,0.04,0.09,0.91,2.72,295.21,29.61,98963.61,88.22,0.06,-0.05,0.93,-2.99,18.96,-12.07,57.00,-41.84,70.05,31.47,$GPGGA,153524.000,4203.5438,N,08508.5319,W,2,08,1.00,271.3,M,-3
230731,0.01,0.02,1.16,2.72,294.93,29.63,98966.88,88.19,0.03,-0.09,1.15,12.13,-16.83,-1.40,53.44,-39.45,72.35,31.47,$GPGGA,153525.000,4203.5437,N,08508.5319,W,2,08,1.00,271.3,M,-3
231731,0.04,0.10,0.92,2.72,294.73,29.63,98969.26,88.19,0.06,-0.02,0.95,-1.71,10.61,5.91,46.31,-40.64,72.35,31.47,$GPGGA,153526.000,4203.5434,N,08508.5320,W,2,08,1.00,271.4,M,-3
232731,0.11,0.13,0.94,2.72,294.56,29.65,98971.21,88.23,0.14,0.03,0.97,-13.17,-3.35,4.33,47.50,-41.84,68.91,31.47,$GPGGA,153527.000,4203.5430,N,08508.5321,W,2,08,1.00,271.6,M,-3
233732,0.13,0.08,0.92,2.72,295.01,29.65,98965.91,88.19,0.16,-0.07,0.94,3.54,18.90,-20.37,48.69,-41.84,71.20,31.51,$GPGGA,153528.000,4203.5427,N,08508.5321,W,2,08,1.00,271.7,M,-3
234731,0.05,0.09,0.92,2.72,294.96,29.66,98966.56,88.19,0.08,-0.07,0.93,-6.04,3.96,4.88,47.50,-43.03,68.91,31.51,$GPGGA,153529.000,4203.5424,N,08508.5322,W,2,08,1.00,271.7,M,-3
235731,-0.04,-0.10,0.77,2.72,295.21,29.66,98963.63,88.22,0.01,-0.30,0.77,-12.20,-13.60,-2.20,76.00,-29.88,72.35,31.51,$GPGGA,153530.000,4203.5420,N,08508.5324,W,2,08,1.00,271.8,M,-3
236731,0.13,-0.21,0.71,2.72,295.15,29.66,98964.27,88.22,0.16,-0.40,0.78,25.73,-54.39,-16.04,71.25,-35.86,71.20,31.51,$GPGGA,153531.000,4203.5417,N,08508.5326,W,2,08,1.00,271.8,M,-3
237731,0.13,-0.21,0.84,2.72,294.97,29.67,98966.41,88.19,0.16,-0.43,0.77,-4.82,20.24,-28.29,78.37,-47.81,66.61,31.47,$GPGGA,153532.000,4203.5415,N,08508.5328,W,2,08,1.00,271.9,M,-3
238732,-0.02,-0.14,0.82,2.72,294.96,29.67,98966.53,88.19,0.01,-0.34,0.84,-9.33,13.23,-1.40,91.44,-41.84,62.02,31.47,$GPGGA,153533.000,4203.5413,N,08508.5329,W,2,08,1.00,271.9,M,-3
239731,-0.10,0.06,0.92,2.72,294.97,29.67,98966.37,88.17,-0.08,-0.07,0.93,-12.32,-33.90,7.74,58.19,-35.86,70.05,31.47,$GPGGA,153534.000,4203.5409,N,08508.5329,W,2,08,1.00,271.9,M,-3
240732,-0.04,-0.00,0.80,2.72,295.14,29.68,98965.29,88.22,-0.01,-0.14,0.79,39.88,40.98,-12.07,61.75,-26.30,74.65,31.47,$GPGGA,153535.000,4203.5406,N,08508.5329,W,2,08,1.00,272.0,M,-3
241731,0.01,0.15,0.94,2.72,294.74,29.68,98969.20,88.19,0.04,0.04,0.94,-7.20,-16.95,-18.54,34.44,-22.71,73.50,31.47,$GPGGA,153536.000,4203.5404,N,08508.5329,W,2,08,1.00,272.1,M,-3
242732,0.05,0.17,0.99,2.72,294.76,29.69,98968.85,88.17,0.08,0.08,1.01,-24.70,20.79,5.98,26.12,-25.10,67.76,31.47,$GPGGA,153537.000,4203.5402,N,08508.5328,W,2,08,1.00,272.4,M,-3
243732,0.05,0.19,1.05,2.72,295.01,29.69,98965.91,88.17,0.06,0.09,1.03,-0.37,9.21,8.90,26.12,-39.45,67.76,31.47,$GPGGA,153538.000,4203.5400,N,08508.5329,W,2,08,1.00,272.6,M,-3
244731,0.14,0.23,0.98,2.72,294.58,29.70,98971.03,88.19,0.16,0.13,0.95,14.39,22.38,-2.32,27.31,-44.23,63.16,31.47,$GPGGA,153539.000,4203.5398,N,08508.5329,W,2,08,1.00,272.7,M,-3
245732,0.18,0.27,0.92,2.72,294.53,29.71,98971.64,88.16,0.20,0.16,0.91,-46.04,-25.85,17.26,35.63,-50.20,64.31,31.47,$GPGGA,153540.000,4203.5396,N,08508.5330,W,2,08,1.00,272.7,M,-3
246731,0.34,-0.03,0.75,2.72,294.71,29.71,98969.50,88.16,0.37,-0.18,0.78,3.48,47.62,-19.21,54.63,-60.96,63.16,31.47,$GPGGA,153541.000,4203.5393,N,08508.5331,W,2,08,1.00,272.7,M,-3
247732,0.14,0.02,1.03,2.72,294.66,29.71,98970.03,88.20,0.18,-0.10,1.06,69.70,-27.26,49.57,53.44,-38.25,70.05,31.47,$GPGGA,153542.000,4203.5390,N,08508.5332,W,2,08,1.00,272.7,M,-3
248731,0.18,0.01,0.95,2.72,294.80,29.72,98968.47,88.17,0.21,-0.14,0.96,14.63,-0.30,-1.52,57.00,-50.20,63.16,31.47,$GPGGA,153543.000,4203.5389,N,08508.5333,W,2,08,1.00,272.8,M,-3
249732,0.27,0.06,0.95,2.72,295.00,29.72,98966.07,88.17,0.30,-0.07,0.96,8.05,-4.76,4.82,58.19,-57.38,65.46,31.47,$GPGGA,153544.000,4203.5387,N,08508.5333,W,2,08,1.00,272.8,M,-3
250732,0.19,0.02,0.95,2.72,295.00,29.72,98966.07,88.16,0.22,-0.10,0.96,-4.51,1.59,1.22,59.38,-50.20,67.76,31.47,$GPGGA,153545.000,4203.5386,N,08508.5333,W,2,08,1.00,272.9,M,-3
251731,0.16,0.06,0.98,2.72,295.16,29.72,98964.14,88.17,0.19,-0.07,0.98,-1.28,-2.99,-2.26,57.00,-49.01,67.76,31.47,$GPGGA,153546.000,4203.5386,N,08508.5334,W,2,08,1.00,273.0,M,-3
252732,0.14,0.01,0.95,2.72,294.97,29.73,98966.44,88.20,0.17,-0.12,0.96,3.54,8.84,3.29,57.00,-50.20,70.05,31.47,$GPGGA,153547.000,4203.5386,N,08508.5334,W,2,08,1.00,273.0,M,-3
253731,0.11,0.01,0.96,2.72,294.99,29.74,98966.12,88.22,0.15,-0.13,0.97,-1.65,-2.07,2.07,59.38,-45.42,67.76,31.47,$GPGGA,153548.000,4203.5385,N,08508.5334,W,2,08,1.00,273.0,M,-3
254732,0.11,-0.10,0.87,2.72,295.19,29.74,98963.86,88.17,0.13,-0.28,0.86,-58.41,-5.24,-15.98,71.25,-40.64,68.91,31.47,$GPGGA,153549.000,4203.5385,N,08508.5334,W,2,08,1.00,273.0,M,-3
255732,0.01,0.01,0.95,2.72,294.84,29.74,98967.94,88.17,0.04,-0.14,0.95,-6.77,8.35,2.80,60.56,-33.47,72.35,31.47,$GPGGA,153550.000,4203.5385,N,08508.5334,W,2,08,1.00,273.0,M,-3
256732,-0.02,0.04,0.95,2.72,294.81,29.75,98968.27,88.16,-0.01,-0.10,0.96,11.71,-7.44,2.20,59.38,-34.66,73.50,31.47,$GPGGA,153551.000,4203.5385,N,08508.5335,W,2,08,1.00,273.0,M,-3
257732,0.01,0.01,0.99,2.72,295.11,29.76,98964.78,88.16,0.05,-0.13,1.03,-3.60,1.28,-2.38,60.56,-34.66,73.50,31.47,$GPGGA,153552.000,4203.5385,N,08508.5335,W,2,08,1.00,273.0,M,-3
258732,-0.01,0.04,0.96,2.72,294.81,29.76,98968.28,88.17,0.01,-0.10,0.96,-1.89,-4.15,-9.70,61.75,-33.47,74.65,31.47,$GPGGA,153553.000,4203.5385,N,08508.5335,W,2,08,1.00,273.0,M,-3
259732,-0.02,-0.04,0.94,2.72,294.99,29.78,98966.17,88.16,0.00,-0.19,0.94,-1.95,-13.78,0.06,65.31,-38.25,71.20,31.47,$GPGGA,153554.000,4203.5385,N,08508.5335,W,2,08,1.00,273.0,M,-3
260732,0.02,0.02,0.95,2.72,294.95,29.78,98966.66,88.17,0.06,-0.13,0.96,-3.72,12.62,-3.60,61.75,-39.45,70.05,31.47,$GPGGA,153555.000,4203.5385,N,08508.5335,W,2,08,1.00,273.0,M,-3
261732,0.01,-0.01,0.94,2.72,294.90,29.79,98967.27,88.19,0.04,-0.15,0.96,-7.38,3.72,6.22,59.38,-37.05,70.05,31.47,$GPGGA,153556.000,4203.5385,N,08508.5335,W,2,08,1.00,273.0,M,-3
262732,-0.01,0.01,0.94,2.72,294.96,29.79,98966.50,88.13,0.02,-0.14,0.95,7.01,7.74,1.65,64.12,-35.86,72.35,31.47,$GPGGA,153557.000,4203.5385,N,08508.5334,W,2,08,1.00,272.9,M,-3
263732,-0.24,-0.07,0.89,2.72,294.94,29.80,98966.80,88.13,-0.22,-0.23,0.94,-7.26,13.05,-7.99,68.87,-19.12,73.50,31.47,$GPGGA,153558.000,4203.5385,N,08508.5334,W,2,08,1.00,272.9,M,-3
264732,-0.19,0.01,0.87,2.72,294.94,29.80,98966.80,88.16,-0.18,-0.14,0.89,19.63,-8.72,-7.26,60.56,-20.32,76.95,31.47,$GPGGA,153559.000,4203.5385,N,08508.5334,W,2,08,1.00,272.9,M,-3
265733,-0.13,0.14,0.94,2.72,294.93,29.82,98966.89,88.10,-0.10,0.01,0.94,5.37,0.18,-8.54,52.25,-21.52,73.50,31.47,$GPGGA,153600.000,4203.5385,N,08508.5334,W,2,08,1.00,272.9,M,-3
266732,-0.08,0.11,0.99,2.72,294.68,29.83,98969.84,88.13,-0.06,-0.01,0.98,-4.63,9.09,3.29,52.25,-27.49,73.50,31.47,$GPGGA,153601.000,4203.5385,N,08508.5334,W,2,08,1.00,272.9,M,-3
267732,-0.13,0.11,0.98,2.72,294.79,29.86,98968.55,88.09,-0.11,-0.01,0.97,2.38,-0.18,-0.24,53.44,-25.10,73.50,31.47,$GPGGA,153602.000,4203.5385,N,08508.5334,W,2,08,1.00,272.9,M,-3
268732,-0.13,0.11,0.96,2.72,294.53,29.89,98971.55,88.09,-0.12,-0.01,0.97,1.71,-0.61,-0.49,53.44,-23.91,74.65,31.47,$GPGGA,153603.000,4203.5385,N,08508.5334,W,2,08,1.00,272.9,M,-3
269732,-0.11,0.14,0.98,2.72,294.81,29.90,98968.30,88.09,-0.09,0.02,0.98,-4.02,5.30,-4.88,48.69,-28.69,72.35,31.47,$GPGGA,153604.000,4203.5385,N,08508.5334,W,2,08,1.00,272.9,M,-3
270733,-0.13,0.11,0.95,2.72,295.25,29.91,98963.08,88.09,-0.12,-0.01,0.96,-2.99,2.68,3.11,53.44,-27.49,76.95,31.47,$GPGGA,153605.000,4203.5385,N,08508.5334,W,2,08,1.00,272.9,M,-3
271732,-0.15,0.10,0.95,2.72,295.43,29.93,98960.97,88.10,-0.12,-0.03,0.95,-1.95,4.51,1.83,53.44,-23.91,75.80,31.47,$GPGGA,153606.000,4203.5385,N,08508.5334,W,2,08,1.00,272.9,M,-3
272733,-0.11,0.10,0.99,2.72,293.34,29.95,98985.66,88.09,-0.09,-0.02,1.00,-4.21,14.51,-5.73,52.25,-25.10,75.80,31.47,$GPGGA,153607.000,4203.5384,N,08508.5334,W,2,08,1.00,273.0,M,-3
273732,-0.13,0.11,0.96,2.72,294.90,29.96,98967.25,88.10,-0.12,-0.01,0.98,3.23,3.96,1.04,55.81,-25.10,74.65,31.51,$GPGGA,153608.000,4203.5384,N,08508.5334,W,2,08,1.00,273.0,M,-3
274733,-0.15,0.17,0.98,2.72,295.10,29.98,98964.89,88.09,-0.12,0.04,0.98,-4.82,-0.30,-4.63,49.88,-26.30,72.35,31.51,$GPGGA,153609.000,4203.5384,N,08508.5334,W,2,08,1.00,273.0,M,-3
275733,-0.08,0.14,1.01,2.72,294.98,29.99,98966.35,88.10,-0.06,0.03,1.00,-4.27,-3.48,-0.85,46.31,-28.69,72.35,31.51,$GPGGA,153610.000,4203.5384,N,08508.5334,W,2,08,1.00,273.0,M,-3
276732,-0.05,0.14,0.85,2.72,295.36,30.01,98961.74,88.10,-0.04,0.05,0.87,28.05,11.10,-16.16,49.88,-21.52,73.50,31.47,$GPGGA,153611.000,4203.5384,N,08508.5334,W,2,08,1.00,273.0,M,-3
277733,0.07,0.01,0.88,2.72,294.51,30.08,98971.91,88.12,0.10,-0.13,0.92,13.29,17.13,14.45,54.63,-41.84,71.20,31.47,$GPGGA,153612.000,4203.5384,N,08508.5334,W,2,08,1.00,273.0,M,-3
278732,0.27,0.18,0.94,2.72,295.28,30.06,98962.76,88.09,0.29,0.09,0.92,-1.28,11.71,0.18,43.94,-58.57,62.02,31.47,$GPGGA,153613.000,4203.5384,N,08508.5334,W,2,08,1.00,273.0,M,-3
279733,0.21,0.13,0.94,2.72,295.65,30.05,98958.40,88.12,0.23,0.01,0.94,8.84,6.77,2.93,47.50,-54.98,64.31,31.47,$GPGGA,153614.000,4203.5384,N,08508.5334,W,2,08,1.00,273.0,M,-3
280732,0.14,0.09,0.99,2.72,295.37,30.05,98961.71,88.08,0.17,-0.02,1.00,-3.35,10.67,-2.26,47.50,-45.42,68.91,31.43,$GPGGA,153615.000,4203.5384,N,08508.5334,W,2,08,1.00,273.0,M,-3
281733,0.08,0.09,0.96,2.73,295.17,30.07,98964.10,88.12,0.11,-0.04,0.97,-2.74,0.00,-2.56,52.25,-41.84,70.05,31.47,$GPGGA,153616.000,4203.5384,N,08508.5334,W,2,08,1.00,273.0,M,-3
282733,0.11,0.08,0.92,2.73,294.82,30.09,98968.13,88.09,0.14,-0.06,0.92,10.67,10.12,2.56,48.69,-43.03,71.20,31.47,$GPGGA,153617.000,4203.5384,N,08508.5334,W,2,08,1.00,273.0,M,-3
283732,0.05,0.11,0.96,2.73,295.16,30.09,98964.13,88.09,0.07,0.00,0.98,-0.24,0.55,0.24,52.25,-41.84,70.05,31.47,$GPGGA,153618.000,4203.5384,N,08508.5334,W,2,08,1.00,273.0,M,-3
284733,0.08,0.13,0.99,2.73,294.53,30.10,98971.61,88.12,0.11,0.01,0.98,-1.59,-3.23,-0.85,43.94,-40.64,71.20,31.47,$GPGGA,153619.000,4203.5384,N,08508.5334,W,2,08,1.00,273.0,M,-3
285732,0.10,0.11,0.99,2.73,295.08,30.12,98965.11,88.12,0.12,-0.00,0.99,-6.04,3.17,-2.93,48.69,-41.84,71.20,31.43,$GPGGA,153620.000,4203.5384,N,08508.5334,W,2,08,1.00,273.0,M,-3
286733,0.02,0.10,0.95,2.73,293.66,30.16,98981.86,88.09,0.05,-0.02,0.95,2.32,-0.55,1.10,47.50,-38.25,73.50,31.47,$GPGGA,153621.000,4203.5384,N,08508.5334,W,2,08,1.00,273.0,M,-3
287733,0.02,0.14,0.98,2.73,293.38,30.23,98985.18,88.10,0.05,0.03,0.98,-1.40,-1.04,1.04,45.13,-37.05,72.35,31.47,$GPGGA,153622.000,4203.5384,N,08508.5334,W,2,08,1.00,273.0,M,-3
288733,0.02,0.11,0.99,2.73,293.33,30.29,98985.81,88.09,0.05,0.00,0.99,0.79,0.67,-0.30,47.50,-38.25,70.05,31.47,$GPGGA,153623.000,4203.5384,N,08508.5334,W,2,08,1.00,273.0,M,-3
289733,0.01,0.14,0.96,2.73,293.56,30.32,98983.05,88.08,0.03,0.02,0.97,-2.20,2.68,-0.73,47.50,-37.05,72.35,31.47,$GPGGA,153624.000,4203.5384,N,08508.5334,W,2,08,1.00,273.0,M,-3
290733,-0.01,0.14,0.98,2.73,293.46,30.35,98984.20,88.12,0.02,0.02,0.98,-2.38,1.28,1.34,45.13,-37.05,72.35,31.47,$GPGGA,153625.000,4203.5384,N,08508.5334,W,2,08,1.00,273.0,M,-3
291733,0.01,0.14,0.99,2.73,293.91,30.37,98978.91,88.12,0.03,0.02,1.01,-3.35,5.43,-1.71,42.75,-34.66,70.05,31.47,$GPGGA,153626.000,4203.5384,N,08508.5334,W,2,08,1.00,273.0,M,-3
292733,0.01,0.13,0.96,2.73,293.46,30.40,98984.25,88.12,0.03,0.01,0.97,-4.76,6.10,7.99,47.50,-34.66,74.65,31.47,$GPGGA,153627.000,4203.5384,N,08508.5334,W,2,08,1.00,273.0,M,-3
293733,-0.01,0.14,0.99,2.73,294.38,30.43,98973.44,88.12,0.01,0.01,0.99,-10.12,-18.41,-4.70,51.06,-34.66,73.50,31.47,$GPGGA,153628.000,4203.5384,N,08508.5334,W,2,08,1.00,273.0,M,-3
294733,0.13,0.04,0.99,2.73,294.95,30.40,98966.69,88.09,0.16,-0.07,1.00,13.84,17.87,4.45,52.25,-45.42,68.91,31.47,$GPGGA,153629.000,4203.5384,N,08508.5334,W,2,08,1.00,273.0,M,-3
295733,0.07,0.11,0.95,2.73,294.82,30.37,98968.11,88.10,0.09,-0.02,0.96,-8.48,1.89,-2.20,53.44,-40.64,70.05,31.47,$GPGGA,153630.000,4203.5384,N,08508.5334,W,2,08,1.00,273.0,M,-3
296733,-0.05,0.17,1.01,2.73,294.81,30.38,98968.29,88.09,-0.04,0.03,1.01,-5.98,14.15,1.52,48.69,-25.10,73.50,31.51,$GPGGA,153631.000,4203.5384,N,08508.5334,W,2,08,1.00,273.0,M,-3
297734,-0.01,0.13,0.85,2.73,295.12,30.41,98964.68,88.08,0.02,-0.01,0.85,14.51,-8.29,-1.28,61.75,-34.66,70.05,31.51,$GPGGA,153632.000,4203.5384,N,08508.5334,W,2,08,1.00,273.0,M,-3
298733,0.04,0.14,0.94,2.73,294.78,30.39,98968.61,88.10,0.06,0.03,0.94,4.88,8.11,-4.21,45.13,-37.05,70.05,31.47,$GPGGA,153633.000,4203.5384,N,08508.5334,W,2,08,1.00,273.0,M,-3
299734,0.02,0.17,0.96,2.73,294.63,30.41,98970.36,88.08,0.03,0.05,0.96,-9.57,2.44,-0.12,42.75,-35.86,71.20,31.47,$GPGGA,153634.000,4203.5384,N,08508.5334,W,2,08,1.00,273.0,M,-3
300733,-0.01,0.27,0.96,2.73,294.47,30.43,98972.32,88.08,0.01,0.17,0.96,-2.62,2.44,1.71,38.00,-34.66,72.35,31.47,$GPGGA,153635.000,4203.5384,N,08508.5334,W,2,08,1.00,273.0,M,-3
301733,0.05,0.13,1.09,2.73,294.66,30.45,98970.11,88.10,0.07,0.02,1.04,3.05,20.98,-14.09,43.94,-38.25,70.05,31.47,$GPGGA,153636.000,4203.5384,N,08508.5334,W,2,08,1.00,273.0,M,-3
302734,0.14,0.13,1.23,2.73,292.93,30.51,98990.55,88.09,0.04,0.11,1.40,-236.10,-310.43,6.77,45.13,-37.05,70.05,31.47,$GPGGA,153637.000,4203.5384,N,08508.5334,W,2,08,1.00,273.0,M,-3
303733,1.18,0.05,-0.19,2.73,293.21,30.48,98987.22,88.08,0.73,-0.33,-0.18,-71.10,640.37,309.70,87.87,-77.70,35.60,31.47,$GPGGA,153638.000,4203.5384,N,08508.5334,W,2,08,1.00,273.0,M,-3
304734,2.69,-0.52,2.65,2.73,299.07,30.48,98917.99,88.05,2.47,-0.24,2.68,653.54,-360.24,374.76,137.75,-9.56,24.12,31.47,$GPGGA,153639.000,4203.5384,N,08508.5334,W,2,08,1.00,273.0,M,-3
305733,0.24,-0.22,1.19,2.73,301.78,30.46,98885.96,88.05,0.27,-0.39,1.19,25.79,-61.28,69.09,105.69,-74.11,29.86,31.43,$GPGGA,153640.000,4203.5384,N,08508.5333,W,2,08,1.00,273.0,M,-3
306734,0.30,-0.26,0.45,2.73,306.95,30.45,98825.07,88.03,0.32,-0.50,0.45,20.98,-15.37,70.98,138.94,-35.86,6.89,31.43,$GPGGA,153641.000,4203.5380,N,08508.5277,W,2,08,1.01,273.7,M,-3
307734,0.33,-0.00,1.15,2.73,309.05,30.45,98800.21,88.02,0.31,-0.18,1.17,65.06,-136.77,152.74,70.06,2.39,74.65,31.43,$GPGGA,153642.000,4203.5371,N,08508.5254,W,2,08,1.20,274.9,M,-3
308733,0.51,-0.39,0.74,2.73,313.75,30.45,98744.81,87.99,0.53,-0.64,0.82,49.70,-102.07,186.16,130.63,-43.03,31.01,31.39,$GPGGA,153643.000,4203.5368,N,08508.5263,W,2,08,1.01,275.8,M,-3
309734,0.24,-0.16,0.84,2.73,318.02,30.46,98694.47,87.99,0.28,-0.36,0.87,14.45,-18.05,13.11,59.38,-45.42,70.05,31.39,$GPGGA,153644.000,4203.5365,N,08508.5294,W,2,08,1.01,277.9,M,-3
310733,0.40,-0.43,0.61,2.73,321.35,30.46,98655.28,87.96,0.45,-0.68,0.62,28.96,-0.73,65.00,99.75,-68.13,43.64,31.36,$GPGGA,153645.000,4203.5364,N,08508.5310,W,2,08,1.01,280.7,M,-3
311734,0.25,-0.27,0.87,2.73,325.08,30.46,98611.32,87.92,0.28,-0.49,0.89,21.95,14.51,1.77,104.50,-53.79,53.98,31.36,$GPGGA,153646.000,4203.5367,N,08508.5298,W,2,08,1.00,281.4,M,-3
312733,0.27,-0.30,0.66,2.73,330.10,30.46,98552.25,87.88,0.30,-0.50,0.69,18.05,-73.84,90.24,104.50,-65.74,43.64,31.32,$GPGGA,153647.000,4203.5369,N,08508.5280,W,2,08,1.01,284.4,M,-3
313734,0.28,-0.35,0.71,2.73,334.49,30.45,98500.63,87.88,0.33,-0.55,0.76,18.66,-41.40,64.88,137.75,-21.52,25.27,31.32,$GPGGA,153648.000,4203.5368,N,08508.5268,W,2,08,1.01,286.5,M,-3
314734,0.28,-0.36,0.77,2.73,338.45,30.45,98455.74,87.84,0.32,-0.59,0.82,29.63,-55.18,44.09,99.75,5.98,64.31,31.28,$GPGGA,153649.000,4203.5364,N,08508.5263,W,2,08,1.00,287.2,M,-3
315734,0.25,-0.37,0.70,2.73,342.68,30.45,98404.20,87.84,0.29,-0.59,0.76,-12.44,24.57,-31.71,92.62,-2.39,71.20,31.28,$GPGGA,153650.000,4203.5372,N,08508.5286,W,2,08,1.00,288.1,M,-3
316734,0.28,-0.36,0.68,2.73,347.72,30.45,98345.00,87.82,0.33,-0.59,0.73,-35.18,50.37,-78.17,119.94,-8.37,51.68,31.28,$GPGGA,153651.000,4203.5376,N,08508.5296,W,2,08,1.01,291.7,M,-3
317733,0.36,-0.31,0.71,2.73,352.38,30.45,98290.25,87.78,0.37,-0.54,0.75,-52.99,108.41,-148.72,124.69,-41.84,41.34,31.24,$GPGGA,153652.000,4203.5380,N,08508.5302,W,2,08,1.01,295.4,M,-3
318734,0.28,-0.36,0.68,2.73,356.54,30.45,98241.38,87.78,0.33,-0.60,0.73,-19.09,19.57,-40.79,87.87,-51.40,60.87,31.24,$GPGGA,153653.000,4203.5389,N,08508.5300,W,2,08,1.00,296.8,M,-3
319734,0.31,-0.36,0.75,2.73,361.91,30.45,98178.36,87.73,0.35,-0.56,0.78,-24.09,54.33,-66.89,81.94,-16.73,74.65,31.20,$GPGGA,153654.000,4203.5395,N,08508.5300,W,2,08,1.01,299.8,M,-3
320734,0.33,-0.36,0.71,2.73,367.18,30.45,98116.64,87.74,0.36,-0.60,0.75,-32.80,76.28,-98.23,116.37,-5.98,56.27,31.20,$GPGGA,153655.000,4203.5389,N,08508.5296,W,2,08,1.00,302.7,M,-3
321734,0.31,-0.31,0.73,2.73,372.53,30.45,98053.89,87.73,0.35,-0.53,0.77,-46.83,75.61,-102.99,117.56,-51.40,42.49,31.16,$GPGGA,153656.000,4203.5382,N,08508.5299,W,2,08,1.00,304.3,M,-3
322734,0.36,-0.30,0.77,2.73,377.25,30.45,97998.49,87.70,0.38,-0.51,0.79,-42.80,96.52,-124.88,79.56,-32.27,73.50,31.12,$GPGGA,153657.000,4203.5379,N,08508.5313,W,2,08,1.01,308.3,M,-3
323734,0.27,-0.32,0.73,2.73,382.03,30.44,97942.53,87.67,0.31,-0.55,0.75,-20.91,35.67,-48.11,123.50,-1.20,49.38,31.12,$GPGGA,153658.000,4203.5375,N,08508.5318,W,2,08,1.00,311.1,M,-3
324734,0.28,-0.36,0.75,2.73,386.81,30.44,97886.63,87.68,0.32,-0.58,0.80,0.43,-25.06,26.83,128.25,-13.15,43.64,31.08,$GPGGA,153659.000,4203.5369,N,08508.5315,W,2,08,1.00,313.1,M,-3
325734,0.30,-0.32,0.73,2.73,392.00,30.43,97825.89,87.70,0.33,-0.55,0.75,17.01,-48.78,66.46,115.19,-1.20,55.13,31.08,$GPGGA,153700.000,4203.5364,N,08508.5309,W,2,08,1.00,315.0,M,-3
326734,0.27,-0.40,0.68,2.73,396.57,30.44,97772.38,87.70,0.30,-0.61,0.74,17.01,-33.41,43.72,105.69,3.59,63.16,31.08,$GPGGA,153701.000,4203.5365,N,08508.5308,W,2,08,1.00,316.5,M,-3
327734,0.25,-0.37,0.71,2.73,401.98,30.44,97709.10,87.67,0.31,-0.60,0.75,3.23,-25.55,26.52,80.75,-50.20,63.16,31.05,$GPGGA,153702.000,4203.5367,N,08508.5314,W,2,08,1.00,318.8,M,-3
328734,0.25,-0.31,0.75,2.73,406.64,30.44,97654.67,87.64,0.30,-0.53,0.79,-18.05,20.55,-34.39,85.50,-58.57,56.27,31.01,$GPGGA,153703.000,4203.5366,N,08508.5330,W,2,08,1.00,320.7,M,-3
329734,0.30,-0.34,0.74,2.73,410.43,30.44,97610.40,87.64,0.33,-0.54,0.79,-19.82,53.11,-65.73,80.75,-7.17,74.65,31.01,$GPGGA,153704.000,4203.5362,N,08508.5354,W,2,08,1.01,324.3,M,-3
330734,0.28,-0.39,0.67,2.73,415.32,30.44,97553.32,87.67,0.33,-0.61,0.72,-7.99,3.90,-7.01,117.56,-1.20,52.83,30.97,$GPGGA,153705.000,4203.5360,N,08508.5374,W,2,08,1.01,328.2,M,-3
331735,0.28,-0.43,0.61,2.73,420.30,30.43,97495.17,87.63,0.33,-0.66,0.66,-4.88,7.56,-18.84,128.25,-17.93,39.05,30.97,$GPGGA,153706.000,4203.5358,N,08508.5392,W,2,08,1.01,331.4,M,-3
332734,0.28,-0.32,0.70,2.73,425.24,30.43,97437.61,87.62,0.32,-0.55,0.73,1.40,-3.29,2.13,122.31,-23.91,45.94,30.93,$GPGGA,153707.000,4203.5358,N,08508.5405,W,2,08,1.00,332.7,M,-3
333734,0.31,-0.31,0.71,2.73,430.55,30.43,97375.63,87.60,0.35,-0.53,0.74,-21.65,37.87,-40.12,122.31,-34.66,41.34,30.93,$GPGGA,153708.000,4203.5357,N,08508.5416,W,2,08,1.00,333.8,M,-3
334735,0.31,-0.36,0.70,2.73,435.46,30.43,97318.46,87.63,0.37,-0.59,0.74,-10.18,16.83,-11.34,128.25,-33.47,35.60,30.89,$GPGGA,153709.000,4203.5352,N,08508.5431,W,2,08,1.00,335.3,M,-3
335734,0.31,-0.32,0.75,2.73,439.83,30.43,97267.50,87.63,0.37,-0.54,0.78,-18.11,33.35,-23.96,128.25,-34.66,35.60,30.89,$GPGGA,153710.000,4203.5341,N,08508.5459,W,2,08,1.01,342.7,M,-3
336735,0.30,-0.40,0.66,2.73,444.55,30.43,97212.55,87.62,0.35,-0.64,0.71,10.55,-28.60,36.22,134.19,-27.49,28.71,30.85,$GPGGA,153711.000,4203.5330,N,08508.5486,W,2,08,1.01,348.4,M,-3
337734,0.28,-0.37,0.73,2.73,449.23,30.42,97158.16,87.63,0.32,-0.61,0.78,19.57,-38.11,42.50,119.94,0.00,51.68,30.85,$GPGGA,153712.000,4203.5327,N,08508.5517,W,2,08,1.01,356.0,M,-3
338735,0.25,-0.36,0.71,2.73,454.35,30.43,97098.55,87.63,0.31,-0.60,0.76,-8.78,29.94,-29.45,110.44,-4.78,62.02,30.81,$GPGGA,153713.000,4203.5323,N,08508.5548,W,2,08,1.01,361.2,M,-3
339735,0.27,-0.37,0.68,2.73,460.79,30.42,97023.67,87.63,0.31,-0.60,0.74,-17.26,30.43,-40.30,128.25,-11.95,45.94,30.78,$GPGGA,153714.000,4203.5323,N,08508.5578,W,2,08,1.01,367.3,M,-3
